{
"type": "FeatureCollection",
"name": "grocers",
"crs": { "type": "name", "properties": { "name": "urn:ogc:def:crs:OGC:1.3:CRS84" } },
"features": [
{ "type": "Feature", "properties": { "name": "No Frills", "store_name": "ANDY & NICK'S NOFRILLS WINNIPEG", "street": "161 Goulet Street", "city": "Winnipeg", "province": "Manitoba", "postal_cod": "R2H 0R6", "country": "Canada", "source": "https://www.nofrills.ca/en/store-locator", "lon": -97.12153722, "lat": 49.8827376, "audit_corrected": "n" }, "geometry": { "type": "Point", "coordinates": [ -97.12153722, 49.8827376 ] } },
{ "type": "Feature", "properties": { "name": "Save-on-foods", "store_name": "Bridgwater", "street": "400 Town Road North", "city": "Winnipeg", "province": "Manitoba", "postal_cod": "R3Y 0Y3", "country": "Canada", "source": "https://www.saveonfoods.com/sm/planning/rsid/1982/store", "lon": -97.199287, "lat": 49.7980482, "audit_corrected": "n" }, "geometry": { "type": "Point", "coordinates": [ -97.199287, 49.7980482 ] } },
{ "type": "Feature", "properties": { "name": "Wal-mart", "store_name": "C. Winnipeg, Manitoba", "street": "1001 Empress Street", "city": "Winnipeg", "province": "Manitoba", "postal_cod": "R3G 3P8", "country": "Canada", "source": "https://www.walmart.ca/en/store-finder?location=L5V%202N1", "lon": -97.19416103, "lat": 49.89714611, "audit_corrected": "y" }, "geometry": { "type": "Point", "coordinates": [ -97.19416103, 49.89714611 ] } },
{ "type": "Feature", "properties": { "name": "No Frills", "store_name": "CHRIS' NOFRILLS WINNIPEG", "street": "600 Notre Dame Avenue", "city": "Winnipeg", "province": "Manitoba", "postal_cod": "R3B 1S4", "country": "Canada", "source": "https://www.nofrills.ca/en/store-locator", "lon": -97.15646701, "lat": 49.8999148, "audit_corrected": "n" }, "geometry": { "type": "Point", "coordinates": [ -97.15646701, 49.8999148 ] } },
{ "type": "Feature", "properties": { "name": "Dino's Grocery Mart", "store_name": "Dino's Grocery Mart", "street": "84 Isabel Street", "city": "Winnipeg", "province": "Manitoba", "postal_cod": "R3A 1E9", "country": "Canada", "source": "google maps", "lon": -97.1509643, "lat": 49.9006998, "audit_corrected": "n" }, "geometry": { "type": "Point", "coordinates": [ -97.1509643, 49.9006998 ] } },
{ "type": "Feature", "properties": { "name": "Family Foods", "store_name": "Downtown Family Foods", "street": "120 Donald Street", "city": "Winnipeg", "province": "Manitoba", "postal_cod": "R3C 4G2", "country": "Canada", "source": "https://familyfoods.ca/store-locator/manitoba/", "lon": -97.1410556, "lat": 49.8883683, "audit_corrected": "n" }, "geometry": { "type": "Point", "coordinates": [ -97.1410556, 49.8883683 ] } },
{ "type": "Feature", "properties": { "name": "Wal-mart", "store_name": "E. Winnipeg, Manitoba", "street": "1576 Regent Ave West", "city": "Winnipeg", "province": "Manitoba", "postal_cod": "R2C 3B4", "country": "Canada", "source": "https://www.walmart.ca/en/store-finder?location=L5V%202N1", "lon": -97.0641641, "lat": 49.89392585, "audit_corrected": "n" }, "geometry": { "type": "Point", "coordinates": [ -97.0641641, 49.89392585 ] } },
{ "type": "Feature", "properties": { "name": "Food fare", "store_name": "Food fare", "street": "839 Cavalier Drive", "city": "Winnipeg", "province": "Manitoba", "postal_cod": null, "country": "Canada", "source": "https://foodfare.com/#", "lon": -97.2998362, "lat": 49.8920755, "audit_corrected": "n" }, "geometry": { "type": "Point", "coordinates": [ -97.2998362, 49.8920755 ] } },
{ "type": "Feature", "properties": { "name": "Food fare", "store_name": "Food fare", "street": "247 Lilac Street", "city": "Winnipeg", "province": "Manitoba", "postal_cod": null, "country": "Canada", "source": "https://foodfare.com/#", "lon": -97.15681041000001, "lat": 49.8698429, "audit_corrected": "n" }, "geometry": { "type": "Point", "coordinates": [ -97.15681041, 49.8698429 ] } },
{ "type": "Feature", "properties": { "name": "Food fare", "store_name": "Food fare", "street": "115 Maryland Street", "city": "Winnipeg", "province": "Manitoba", "postal_cod": null, "country": "Canada", "source": "https://foodfare.com/#", "lon": -97.1605564, "lat": 49.8819773, "audit_corrected": "n" }, "geometry": { "type": "Point", "coordinates": [ -97.1605564, 49.8819773 ] } },
{ "type": "Feature", "properties": { "name": "Food fare", "store_name": "Food fare", "street": "905 Portage Avenue", "city": "Winnipeg", "province": "Manitoba", "postal_cod": null, "country": "Canada", "source": "https://foodfare.com/#", "lon": -97.17026981, "lat": 49.885692, "audit_corrected": "n" }, "geometry": { "type": "Point", "coordinates": [ -97.17026981, 49.885692 ] } },
{ "type": "Feature", "properties": { "name": "Food fare", "store_name": "Food fare", "street": "2285 Portage Avenue", "city": "Winnipeg", "province": "Manitoba", "postal_cod": null, "country": "Canada", "source": "https://foodfare.com/#", "lon": -97.245055, "lat": 49.8767222, "audit_corrected": "n" }, "geometry": { "type": "Point", "coordinates": [ -97.245055, 49.8767222 ] } },
{ "type": "Feature", "properties": { "name": "FreshCo", "store_name": "Freshco Henderson", "street": "731 Henderson Highway", "city": "Winnipeg", "province": "Manitoba", "postal_cod": "R2K2K4", "country": "Canada", "source": "https://www.freshco.com/store-locator", "lon": -97.10316175, "lat": 49.92683375, "audit_corrected": "n" }, "geometry": { "type": "Point", "coordinates": [ -97.10316175, 49.92683375 ] } },
{ "type": "Feature", "properties": { "name": "FreshCo", "store_name": "FreshCo Jefferson & McPhillips", "street": "920 Jefferson Avenue", "city": "Winnipeg", "province": "Manitoba", "postal_cod": "R2P1W1", "country": "Canada", "source": "https://www.freshco.com/store-locator", "lon": -97.15762087, "lat": 49.94505655, "audit_corrected": "n" }, "geometry": { "type": "Point", "coordinates": [ -97.15762087, 49.94505655 ] } },
{ "type": "Feature", "properties": { "name": "FreshCo", "store_name": "FreshCo Niakwa Village", "street": "2 Alpine Avenue", "city": "Winnipeg", "province": "Manitoba", "postal_cod": "R2M0Y5", "country": "Canada", "source": "https://www.freshco.com/store-locator", "lon": -97.10147366, "lat": 49.855285, "audit_corrected": "n" }, "geometry": { "type": "Point", "coordinates": [ -97.10147366, 49.855285 ] } },
{ "type": "Feature", "properties": { "name": "FreshCo", "store_name": "FreshCo Pembina & McGillivray", "street": "1319 Pembina Highway", "city": "Winnipeg", "province": "Manitoba", "postal_cod": "R3T2B6", "country": "Canada", "source": "https://www.freshco.com/store-locator", "lon": -97.15411487, "lat": 49.84043647, "audit_corrected": "y" }, "geometry": { "type": "Point", "coordinates": [ -97.15411487, 49.84043647 ] } },
{ "type": "Feature", "properties": { "name": "FreshCo", "store_name": "FreshCo Regent & Lagimodiere", "street": "1615 Regent Avenue West", "city": "Winnipeg", "province": "Manitoba", "postal_cod": "R2C5C6", "country": "Canada", "source": "https://www.freshco.com/store-locator", "lon": -97.0697177, "lat": 49.9010799, "audit_corrected": "n" }, "geometry": { "type": "Point", "coordinates": [ -97.0697177, 49.9010799 ] } },
{ "type": "Feature", "properties": { "name": "FreshCo", "store_name": "FreshCo Sargent", "street": "600 Sargent Avenue", "city": "Winnipeg", "province": "Manitoba", "postal_cod": "R3E0A1", "country": "Canada", "source": "https://www.freshco.com/store-locator", "lon": -97.15915119, "lat": 49.89580155, "audit_corrected": "n" }, "geometry": { "type": "Point", "coordinates": [ -97.15915119, 49.89580155 ] } },
{ "type": "Feature", "properties": { "name": "Giant Tiger", "store_name": "Giant Tiger", "street": "345 Donald Street", "city": "Winnipeg", "province": "Manitoba", "postal_cod": "R3B 2J1", "country": "Canada", "source": "giant tiger website", "lon": -97.1996091, "lat": 49.8932039, "audit_corrected": "n" }, "geometry": { "type": "Point", "coordinates": [ -97.1996091, 49.8932039 ] } },
{ "type": "Feature", "properties": { "name": "Giant Tiger", "store_name": "Giant Tiger", "street": "1450 Ellice Avenue", "city": "Winnipeg", "province": "Manitoba", "postal_cod": "R3G 0G4", "country": "Canada", "source": "giant tiger website", "lon": -97.15926198, "lat": 49.9451652, "audit_corrected": "n" }, "geometry": { "type": "Point", "coordinates": [ -97.15926198, 49.9451652 ] } },
{ "type": "Feature", "properties": { "name": "Giant Tiger", "store_name": "Giant Tiger", "street": "507 London Street", "city": "Winnipeg", "province": "Manitoba", "postal_cod": "R2K 2Z4", "country": "Canada", "source": "giant tiger website", "lon": -97.0669312, "lat": 49.8540995, "audit_corrected": "n" }, "geometry": { "type": "Point", "coordinates": [ -97.0669312, 49.8540995 ] } },
{ "type": "Feature", "properties": { "name": "Giant Tiger", "store_name": "Giant Tiger", "street": "940 Jefferson Avenue", "city": "Winnipeg", "province": "Manitoba", "postal_cod": "R2P 1W1", "country": "Canada", "source": "giant tiger website", "lon": -97.0298152, "lat": 49.8939378, "audit_corrected": "n" }, "geometry": { "type": "Point", "coordinates": [ -97.0298152, 49.8939378 ] } },
{ "type": "Feature", "properties": { "name": "Giant Tiger", "store_name": "Giant Tiger", "street": "225 Vermillion Road", "city": "Winnipeg", "province": "Manitoba", "postal_cod": "R2J 3Z7", "country": "Canada", "source": "giant tiger website", "lon": -97.15424211, "lat": 49.81144235, "audit_corrected": "n" }, "geometry": { "type": "Point", "coordinates": [ -97.15424211, 49.81144235 ] } },
{ "type": "Feature", "properties": { "name": "Giant Tiger", "store_name": "Giant Tiger", "street": "838 Regent Avenue West", "city": "Winnipeg", "province": "Manitoba", "postal_cod": "R2C 3A8", "country": "Canada", "source": "giant tiger website", "lon": -97.2962396, "lat": 49.8809649, "audit_corrected": "n" }, "geometry": { "type": "Point", "coordinates": [ -97.2962396, 49.8809649 ] } },
{ "type": "Feature", "properties": { "name": "Giant Tiger", "store_name": "Giant Tiger", "street": "2195 Pembina Highway", "city": "Winnipeg", "province": "Manitoba", "postal_cod": "R3T 5S9", "country": "Canada", "source": "giant tiger website", "lon": -97.14387817, "lat": 49.89562835, "audit_corrected": "y" }, "geometry": { "type": "Point", "coordinates": [ -97.14387817, 49.89562835 ] } },
{ "type": "Feature", "properties": { "name": "Giant Tiger", "store_name": "Giant Tiger", "street": "3332 Portage Avenue", "city": "Winnipeg", "province": "Manitoba", "postal_cod": "R3K 0Z1", "country": "Canada", "source": "giant tiger website", "lon": -97.08039889, "lat": 49.9110666, "audit_corrected": "y" }, "geometry": { "type": "Point", "coordinates": [ -97.08039889, 49.9110666 ] } },
{ "type": "Feature", "properties": { "name": "Red-River Co-op", "store_name": "Grant Park", "street": "1120 Grant Avenue", "city": "Winnipeg", "province": "Manitoba", "postal_cod": null, "country": "Canada", "source": "https://www.redriverco-op.crs/sites/redriver/local/detail/food-stores", "lon": -97.1657136, "lat": 49.8575422, "audit_corrected": "n" }, "geometry": { "type": "Point", "coordinates": [ -97.1657136, 49.8575422 ] } },
{ "type": "Feature", "properties": { "name": "No Frills", "store_name": "HELLARD'S NOFRILLS WINNIPEG", "street": "1445 Main Street", "city": "Winnipeg", "province": "Manitoba", "postal_cod": "R2W 3V8", "country": "Canada", "source": "https://www.nofrills.ca/en/store-locator", "lon": -97.12303457, "lat": 49.9265462, "audit_corrected": "n" }, "geometry": { "type": "Point", "coordinates": [ -97.12303457, 49.9265462 ] } },
{ "type": "Feature", "properties": { "name": "IGA", "store_name": "IGA Main St", "street": "1650 Main Street", "city": "Winnipeg", "province": "Manitoba", "postal_cod": "R2V 1Y9", "country": "Canada", "source": "https://west.iga.ca/store-locator/", "lon": -97.12219032, "lat": 49.9335934, "audit_corrected": "n" }, "geometry": { "type": "Point", "coordinates": [ -97.12219032, 49.9335934 ] } },
{ "type": "Feature", "properties": { "name": "IGA", "store_name": "IGA Windsor Park", "street": "650 Elizabeth Road", "city": "Winnipeg", "province": "Manitoba", "postal_cod": "R2J 1A4", "country": "Canada", "source": "https://west.iga.ca/store-locator/", "lon": -97.08969097000001, "lat": 49.87043142, "audit_corrected": "y" }, "geometry": { "type": "Point", "coordinates": [ -97.08969097, 49.87043142 ] } },
{ "type": "Feature", "properties": { "name": "No Frills", "store_name": "JERAMIE'S NOFRILLS WINNIPEG", "street": "740 St. Anne's Road", "city": "Winnipeg", "province": "Manitoba", "postal_cod": "R2N 0A2", "country": "Canada", "source": "https://www.nofrills.ca/en/store-locator", "lon": -97.08453059, "lat": 49.82197215, "audit_corrected": "n" }, "geometry": { "type": "Point", "coordinates": [ -97.08453059, 49.82197215 ] } },
{ "type": "Feature", "properties": { "name": "Save-on-foods", "store_name": "Kildonan", "street": "1555 Regent Avenue West", "city": "Winnipeg", "province": "Manitoba", "postal_cod": "R2C 4J2", "country": "Canada", "source": "https://www.saveonfoods.com/sm/planning/rsid/1982/store", "lon": -97.06115986, "lat": 49.8984703, "audit_corrected": "n" }, "geometry": { "type": "Point", "coordinates": [ -97.06115986, 49.8984703 ] } },
{ "type": "Feature", "properties": { "name": "Lucky Supermarket", "store_name": "Lucky Supermarket", "street": "1303 Jefferson Avenue", "city": "Winnipeg", "province": "Manitoba", "postal_cod": null, "country": "Canada", "source": "google maps", "lon": -97.1690458, "lat": 49.9539915, "audit_corrected": "n" }, "geometry": { "type": "Point", "coordinates": [ -97.1690458, 49.9539915 ] } },
{ "type": "Feature", "properties": { "name": "Lucky Supermarket", "store_name": "Lucky Supermarket", "street": "1051 Winnipeg Avenue", "city": "Winnipeg", "province": "Manitoba", "postal_cod": null, "country": "Canada", "source": "google maps", "lon": -97.1731403, "lat": 49.9071188, "audit_corrected": "n" }, "geometry": { "type": "Point", "coordinates": [ -97.1731403, 49.9071188 ] } },
{ "type": "Feature", "properties": { "name": "No Frills", "store_name": "LUIS & EMMA'S NOFRILLS WINNIPEG STAFFORD", "street": "677 Stafford Street", "city": "Winnipeg", "province": "Manitoba", "postal_cod": "R3M 2X7", "country": "Canada", "source": "https://www.nofrills.ca/en/store-locator", "lon": -97.153291, "lat": 49.8568387, "audit_corrected": "n" }, "geometry": { "type": "Point", "coordinates": [ -97.153291, 49.8568387 ] } },
{ "type": "Feature", "properties": { "name": "MADINA SUPERMARKET AND HALAL MEAT", "store_name": "MADINA SUPERMARKET AND HALAL MEAT", "street": "166 Meadowood Drive", "city": "Winnipeg", "province": "Manitoba", "postal_cod": "R2M 2S6", "country": "Canada", "source": "google maps", "lon": -97.10910646000001, "lat": 49.8261576, "audit_corrected": "n" }, "geometry": { "type": "Point", "coordinates": [ -97.10910646, 49.8261576 ] } },
{ "type": "Feature", "properties": { "name": "No Frills", "store_name": "MIKE'S NOFRILLS WINNIPEG PLESSIS", "street": "1500 Plessis Road", "city": "Winnipeg", "province": "Manitoba", "postal_cod": "R2C 5R5", "country": "Canada", "source": "https://www.nofrills.ca/en/store-locator", "lon": -97.02775917, "lat": 49.90005635, "audit_corrected": "n" }, "geometry": { "type": "Point", "coordinates": [ -97.02775917, 49.90005635 ] } },
{ "type": "Feature", "properties": { "name": "Wal-mart", "store_name": "N. Winnipeg, Garden City", "street": "2370 McPhillips Street", "city": "Winnipeg", "province": "Manitoba", "postal_cod": "R2V 4J6", "country": "Canada", "source": "https://www.walmart.ca/en/store-finder?location=L5V%202N3", "lon": -97.15004597, "lat": 49.9576129, "audit_corrected": "n" }, "geometry": { "type": "Point", "coordinates": [ -97.15004597, 49.9576129 ] } },
{ "type": "Feature", "properties": { "name": "Save-on-foods", "store_name": "Northgate", "street": "1399 McPhillips Street", "city": "Winnipeg", "province": "Manitoba", "postal_cod": "R2V 3C4", "country": "Canada", "source": "https://www.saveonfoods.com/sm/planning/rsid/1982/store", "lon": -97.1546124, "lat": 49.9411235, "audit_corrected": "n" }, "geometry": { "type": "Point", "coordinates": [ -97.1546124, 49.9411235 ] } },
{ "type": "Feature", "properties": { "name": "Save-on-foods", "store_name": "Pembina", "street": "1910 Pembina Highway", "city": "Winnipeg", "province": "Manitoba", "postal_cod": "R3T 4S5", "country": "Canada", "source": "https://www.saveonfoods.com/sm/planning/rsid/1982/store", "lon": -97.1500276, "lat": 49.8224768, "audit_corrected": "n" }, "geometry": { "type": "Point", "coordinates": [ -97.1500276, 49.8224768 ] } },
{ "type": "Feature", "properties": { "name": "Family Foods", "store_name": "Portage Avenue Family Foods", "street": "1881 Portage Avenue", "city": "Winnipeg", "province": "Manitoba", "postal_cod": "R3J 0H3", "country": "Canada", "source": "https://familyfoods.ca/store-locator/manitoba/", "lon": -97.2193455, "lat": 49.8795701, "audit_corrected": "n" }, "geometry": { "type": "Point", "coordinates": [ -97.2193455, 49.8795701 ] } },
{ "type": "Feature", "properties": { "name": "Real Canadian Superstore", "store_name": "REAL CANADIAN SUPERSTORE BISON DRIVE", "street": "80 Bison Drive", "city": "Winnipeg", "province": "Manitoba", "postal_cod": "R3T 4Z7", "country": "Canada", "source": "https://www.realcanadiansuperstore.ca/en/store-locator?searchQuery=Winnipeg,%20MB,%20Canada&type=store", "lon": -97.1637019, "lat": 49.7999021, "audit_corrected": "n" }, "geometry": { "type": "Point", "coordinates": [ -97.1637019, 49.7999021 ] } },
{ "type": "Feature", "properties": { "name": "Real Canadian Superstore", "store_name": "REAL CANADIAN SUPERSTORE GATEWAY ROAD", "street": "1035 Gateway Road", "city": "Winnipeg", "province": "Manitoba", "postal_cod": "R2K 4C1", "country": "Canada", "source": "https://www.realcanadiansuperstore.ca/en/store-locator?searchQuery=Winnipeg,%20MB,%20Canada&type=store", "lon": -97.06970155, "lat": 49.9281076, "audit_corrected": "n" }, "geometry": { "type": "Point", "coordinates": [ -97.06970155, 49.9281076 ] } },
{ "type": "Feature", "properties": { "name": "Real Canadian Superstore", "store_name": "REAL CANADIAN SUPERSTORE KENASTON BLVD", "street": "550 Kenaston Boulevard", "city": "Winnipeg", "province": "Manitoba", "postal_cod": "R3N 2A1", "country": "Canada", "source": "https://www.realcanadiansuperstore.ca/en/store-locator?searchQuery=Winnipeg,%20MB,%20Canada&type=store", "lon": -97.20379109, "lat": 49.8564563, "audit_corrected": "n" }, "geometry": { "type": "Point", "coordinates": [ -97.20379109, 49.8564563 ] } },
{ "type": "Feature", "properties": { "name": "Real Canadian Superstore", "store_name": "REAL CANADIAN SUPERSTORE MCPHILLIPS STREET", "street": "2132 Mcphillips Street", "city": "Winnipeg", "province": "Manitoba", "postal_cod": "R2V 3C8", "country": "Canada", "source": "https://www.realcanadiansuperstore.ca/en/store-locator?searchQuery=Winnipeg,%20MB,%20Canada&type=store", "lon": -97.15587742, "lat": 49.9494166, "audit_corrected": "n" }, "geometry": { "type": "Point", "coordinates": [ -97.15587742, 49.9494166 ] } },
{ "type": "Feature", "properties": { "name": "Real Canadian Superstore", "store_name": "REAL CANADIAN SUPERSTORE PORTAGE AVENUE", "street": "3193 Portage Avenue", "city": "Winnipeg", "province": "Manitoba", "postal_cod": "R3K 0W4", "country": "Canada", "source": "https://www.realcanadiansuperstore.ca/en/store-locator?searchQuery=Winnipeg,%20MB,%20Canada&type=store", "lon": -97.28835863, "lat": 49.8827339, "audit_corrected": "n" }, "geometry": { "type": "Point", "coordinates": [ -97.28835863, 49.8827339 ] } },
{ "type": "Feature", "properties": { "name": "Real Canadian Superstore", "store_name": "REAL CANADIAN SUPERSTORE REGENT AVENUE", "street": "1578 Regent Avenue West", "city": "Winnipeg", "province": "Manitoba", "postal_cod": "R2C 3B4", "country": "Canada", "source": "https://www.realcanadiansuperstore.ca/en/store-locator?searchQuery=Winnipeg,%20MB,%20Canada&type=store", "lon": -97.06640917, "lat": 49.8942628, "audit_corrected": "n" }, "geometry": { "type": "Point", "coordinates": [ -97.06640917, 49.8942628 ] } },
{ "type": "Feature", "properties": { "name": "Real Canadian Superstore", "store_name": "REAL CANADIAN SUPERSTORE SARGENT AVENUE", "street": "1385 Sargent Avenue", "city": "Winnipeg", "province": "Manitoba", "postal_cod": "R3E 3P8", "country": "Canada", "source": "https://www.realcanadiansuperstore.ca/en/store-locator?searchQuery=Winnipeg,%20MB,%20Canada&type=store", "lon": -97.19890211000001, "lat": 49.9000278, "audit_corrected": "n" }, "geometry": { "type": "Point", "coordinates": [ -97.19890211, 49.9000278 ] } },
{ "type": "Feature", "properties": { "name": "Real Canadian Superstore", "store_name": "REAL CANADIAN SUPERSTORE ST ANNE'S ROAD", "street": "215 St Anne's Road", "city": "Winnipeg", "province": "Manitoba", "postal_cod": "R2M 2Z9", "country": "Canada", "source": "https://www.realcanadiansuperstore.ca/en/store-locator?searchQuery=Winnipeg,%20MB,%20Canada&type=store", "lon": -97.10292132, "lat": 49.8577786, "audit_corrected": "n" }, "geometry": { "type": "Point", "coordinates": [ -97.10292132, 49.8577786 ] } },
{ "type": "Feature", "properties": { "name": "Wal-mart", "store_name": "S. Winnipeg, St.vital Ctr", "street": "1225 St Mary's Road", "city": "Winnipeg", "province": "Manitoba", "postal_cod": "R2M 5E6", "country": "Canada", "source": "https://www.walmart.ca/en/store-finder?location=L5V%202N4", "lon": -97.1105284, "lat": 49.8291119, "audit_corrected": "n" }, "geometry": { "type": "Point", "coordinates": [ -97.1105284, 49.8291119 ] } },
{ "type": "Feature", "properties": { "name": "Safeway", "store_name": "Safeway Charleswood Centre", "street": "3900 Grant Avenue", "city": "Winnipeg", "province": "Manitoba", "postal_cod": "R3R3C2", "country": "Canada", "source": "https://www.safeway.ca/store-locator", "lon": -97.2634719, "lat": 49.8580669, "audit_corrected": "n" }, "geometry": { "type": "Point", "coordinates": [ -97.2634719, 49.8580669 ] } },
{ "type": "Feature", "properties": { "name": "Safeway", "store_name": "Safeway Crestview", "street": "3393 Portage Avenue", "city": "Winnipeg", "province": "Manitoba", "postal_cod": "R3K2G7", "country": "Canada", "source": "https://www.safeway.ca/store-locator", "lon": -97.2992578, "lat": 49.8832098, "audit_corrected": "n" }, "geometry": { "type": "Point", "coordinates": [ -97.2992578, 49.8832098 ] } },
{ "type": "Feature", "properties": { "name": "Safeway", "store_name": "Safeway Lindenridge", "street": "1625 Kenaston Boulevard", "city": "Winnipeg", "province": "Manitoba", "postal_cod": "R3P2M4", "country": "Canada", "source": "https://www.safeway.ca/store-locator", "lon": -97.20146626, "lat": 49.82584245, "audit_corrected": "n" }, "geometry": { "type": "Point", "coordinates": [ -97.20146626, 49.82584245 ] } },
{ "type": "Feature", "properties": { "name": "Safeway", "store_name": "Safeway Madison Square", "street": "1612 Ness Avenue", "city": "Winnipeg", "province": "Manitoba", "postal_cod": "R3J0H7", "country": "Canada", "source": "https://www.safeway.ca/store-locator", "lon": -97.20492605, "lat": 49.88201075, "audit_corrected": "n" }, "geometry": { "type": "Point", "coordinates": [ -97.20492605, 49.88201075 ] } },
{ "type": "Feature", "properties": { "name": "Safeway", "store_name": "Safeway Marion and Braemar", "street": "285 Marion Street", "city": "Winnipeg", "province": "Manitoba", "postal_cod": "R2H0T8", "country": "Canada", "source": "https://www.safeway.ca/store-locator", "lon": -97.11471782, "lat": 49.8820952, "audit_corrected": "n" }, "geometry": { "type": "Point", "coordinates": [ -97.11471782, 49.8820952 ] } },
{ "type": "Feature", "properties": { "name": "Safeway", "store_name": "Safeway Mountain and McGregor", "street": "594 Mountain Avenue", "city": "Winnipeg", "province": "Manitoba", "postal_cod": "R2W1L2", "country": "Canada", "source": "https://www.safeway.ca/store-locator", "lon": -97.1448148, "lat": 49.92415185, "audit_corrected": "n" }, "geometry": { "type": "Point", "coordinates": [ -97.1448148, 49.92415185 ] } },
{ "type": "Feature", "properties": { "name": "Safeway", "store_name": "Safeway Osborne and Kylemore", "street": "655 Osborne Avenue", "city": "Winnipeg", "province": "Manitoba", "postal_cod": "R3L2B7", "country": "Canada", "source": "https://www.safeway.ca/store-locator", "lon": -97.13363672, "lat": 49.86297595, "audit_corrected": "y" }, "geometry": { "type": "Point", "coordinates": [ -97.13363672, 49.86297595 ] } },
{ "type": "Feature", "properties": { "name": "Safeway", "store_name": "Safeway Pembina Village", "street": "2155 Pembina Highway", "city": "Winnipeg", "province": "Manitoba", "postal_cod": "R3T5S9", "country": "Canada", "source": "https://www.safeway.ca/store-locator", "lon": -97.15487727, "lat": 49.8120399, "audit_corrected": "n" }, "geometry": { "type": "Point", "coordinates": [ -97.15487727, 49.8120399 ] } },
{ "type": "Feature", "properties": { "name": "Safeway", "store_name": "Safeway River Avenue", "street": "499 River Avenue", "city": "Winnipeg", "province": "Manitoba", "postal_cod": "R3L0C9", "country": "Canada", "source": "https://www.safeway.ca/store-locator", "lon": -97.1484939, "lat": 49.8794753, "audit_corrected": "n" }, "geometry": { "type": "Point", "coordinates": [ -97.1484939, 49.8794753 ] } },
{ "type": "Feature", "properties": { "name": "Safeway", "store_name": "Safeway River East Plaza", "street": "1441 Henderson Highway", "city": "Winnipeg", "province": "Manitoba", "postal_cod": "R2G1N4", "country": "Canada", "source": "https://www.safeway.ca/store-locator", "lon": -97.0826563, "lat": 49.9462032, "audit_corrected": "n" }, "geometry": { "type": "Point", "coordinates": [ -97.0826563, 49.9462032 ] } },
{ "type": "Feature", "properties": { "name": "Safeway", "store_name": "Safeway Transcona", "street": "654 Kildare Avenue East", "city": "Winnipeg", "province": "Manitoba", "postal_cod": "R2C0P8", "country": "Canada", "source": "https://www.safeway.ca/store-locator", "lon": -96.9856272, "lat": 49.9002583, "audit_corrected": "n" }, "geometry": { "type": "Point", "coordinates": [ -96.9856272, 49.9002583 ] } },
{ "type": "Feature", "properties": { "name": "Safeway", "store_name": "Safeway Tuxedo", "street": "2025 Corydon Avenue", "city": "Winnipeg", "province": "Manitoba", "postal_cod": "R3P0N5", "country": "Canada", "source": "https://www.safeway.ca/store-locator", "lon": -97.21183601, "lat": 49.86728305, "audit_corrected": "n" }, "geometry": { "type": "Point", "coordinates": [ -97.21183601, 49.86728305 ] } },
{ "type": "Feature", "properties": { "name": "Safeway", "store_name": "Safeway Tyndall Square", "street": "850 Keewatin Street", "city": "Winnipeg", "province": "Manitoba", "postal_cod": "R2R0Z5", "country": "Canada", "source": "https://www.safeway.ca/store-locator", "lon": -97.19701146, "lat": 49.9378612, "audit_corrected": "n" }, "geometry": { "type": "Point", "coordinates": [ -97.19701146, 49.9378612 ] } },
{ "type": "Feature", "properties": { "name": "Red-River Co-op", "store_name": "Seasons", "street": "755 Sterling Lyon Parkway", "city": "Winnipeg", "province": "Manitoba", "postal_cod": null, "country": "Canada", "source": "https://www.redriverco-op.crs/sites/redriver/local/detail/food-stores", "lon": -97.22144395, "lat": 49.84365095, "audit_corrected": "n" }, "geometry": { "type": "Point", "coordinates": [ -97.22144395, 49.84365095 ] } },
{ "type": "Feature", "properties": { "name": "Sobeys", "store_name": "Sobeys Grant Park", "street": "1150 Taylor Avenue", "city": "Winnipeg", "province": "Manitoba", "postal_cod": "R3M3Z4", "country": "Canada", "source": "https://www.sobeys.com/store-locator", "lon": -97.16505025, "lat": 49.8523019, "audit_corrected": "n" }, "geometry": { "type": "Point", "coordinates": [ -97.16505025, 49.8523019 ] } },
{ "type": "Feature", "properties": { "name": "Sobeys", "store_name": "Sobeys Kenaston", "street": "1660 Kenaston Boulevard", "city": "Winnipeg", "province": "Manitoba", "postal_cod": "R3P2M6", "country": "Canada", "source": "https://www.sobeys.com/store-locator", "lon": -97.2037793, "lat": 49.8213805, "audit_corrected": "n" }, "geometry": { "type": "Point", "coordinates": [ -97.2037793, 49.8213805 ] } },
{ "type": "Feature", "properties": { "name": "Sobeys", "store_name": "Sobeys Kildonan", "street": "50 Kildonan Green Drive", "city": "Winnipeg", "province": "Manitoba", "postal_cod": "R3W0H1", "country": "Canada", "source": "https://www.sobeys.com/store-locator", "lon": -97.0271773, "lat": 49.910491, "audit_corrected": "n" }, "geometry": { "type": "Point", "coordinates": [ -97.0271773, 49.910491 ] } },
{ "type": "Feature", "properties": { "name": "Sobeys", "store_name": "Sobeys Northdale", "street": "965 Henderson Highway", "city": "Winnipeg", "province": "Manitoba", "postal_cod": "R2K2M3", "country": "Canada", "source": "https://www.sobeys.com/store-locator", "lon": -97.09445237, "lat": 49.9336795, "audit_corrected": "n" }, "geometry": { "type": "Point", "coordinates": [ -97.09445237, 49.9336795 ] } },
{ "type": "Feature", "properties": { "name": "Sobeys", "store_name": "Sobeys Pembina", "street": "2850 Pembina Highway", "city": "Winnipeg", "province": "Manitoba", "postal_cod": "R3T6E4", "country": "Canada", "source": "https://www.sobeys.com/store-locator", "lon": -97.15500344, "lat": 49.78950395, "audit_corrected": "n" }, "geometry": { "type": "Point", "coordinates": [ -97.15500344, 49.78950395 ] } },
{ "type": "Feature", "properties": { "name": "Sobeys", "store_name": "Sobeys Reenders", "street": "7 Reenders Drive", "city": "Winnipeg", "province": "Manitoba", "postal_cod": "R2C5K5", "country": "Canada", "source": "https://www.sobeys.com/store-locator", "lon": -97.06749239, "lat": 49.9041611, "audit_corrected": "n" }, "geometry": { "type": "Point", "coordinates": [ -97.06749239, 49.9041611 ] } },
{ "type": "Feature", "properties": { "name": "Sobeys", "store_name": "Sobeys Rivergrove", "street": "2575 Main Street", "city": "Winnipeg", "province": "Manitoba", "postal_cod": "R2V4W3", "country": "Canada", "source": "https://www.sobeys.com/store-locator", "lon": -97.08885337, "lat": 49.9579663, "audit_corrected": "n" }, "geometry": { "type": "Point", "coordinates": [ -97.08885337, 49.9579663 ] } },
{ "type": "Feature", "properties": { "name": "Sobeys", "store_name": "Sobeys Sage Creek", "street": "50 Sage Creek Boulevard", "city": "Winnipeg", "province": "Manitoba", "postal_cod": "R3X0J6", "country": "Canada", "source": "https://www.sobeys.com/store-locator", "lon": -97.0459387, "lat": 49.8325034, "audit_corrected": "n" }, "geometry": { "type": "Point", "coordinates": [ -97.0459387, 49.8325034 ] } },
{ "type": "Feature", "properties": { "name": "Sobeys", "store_name": "Sobeys St. Vital", "street": "1500 Dakota Street", "city": "Winnipeg", "province": "Manitoba", "postal_cod": "R2N3Y7", "country": "Canada", "source": "https://www.sobeys.com/store-locator", "lon": -97.09550036, "lat": 49.810642, "audit_corrected": "n" }, "geometry": { "type": "Point", "coordinates": [ -97.09550036, 49.810642 ] } },
{ "type": "Feature", "properties": { "name": "Sobeys", "store_name": "Sobeys Unicity", "street": "3635 Portage Avenue", "city": "Winnipeg", "province": "Manitoba", "postal_cod": "R3K2G6", "country": "Canada", "source": "https://www.sobeys.com/store-locator", "lon": -97.3111672, "lat": 49.885793, "audit_corrected": "n" }, "geometry": { "type": "Point", "coordinates": [ -97.3111672, 49.885793 ] } },
{ "type": "Feature", "properties": { "name": "Red-River Co-op", "store_name": "Southdale", "street": "77 Vermillion Road", "city": "Winnipeg", "province": "Manitoba", "postal_cod": null, "country": "Canada", "source": "https://www.redriverco-op.crs/sites/redriver/local/detail/food-stores", "lon": -97.07339294000001, "lat": 49.85452835, "audit_corrected": "n" }, "geometry": { "type": "Point", "coordinates": [ -97.07339294, 49.85452835 ] } },
{ "type": "Feature", "properties": { "name": "Save-on-foods", "store_name": "St James", "street": "850 ST James Street", "city": "Winnipeg", "province": "Manitoba", "postal_cod": "R3G 3L7", "country": "Canada", "source": "https://www.saveonfoods.com/sm/planning/rsid/1982/store", "lon": -97.2024535, "lat": 49.88945591, "audit_corrected": "y" }, "geometry": { "type": "Point", "coordinates": [ -97.2024535, 49.88945591 ] } },
{ "type": "Feature", "properties": { "name": "Red-River Co-op", "store_name": "St Norbert", "street": "3477 Pembina Highway", "city": "Winnipeg", "province": "Manitoba", "postal_cod": null, "country": "Canada", "source": "https://www.redriverco-op.crs/sites/redriver/local/detail/food-stores", "lon": -97.1559566, "lat": 49.7670012, "audit_corrected": "n" }, "geometry": { "type": "Point", "coordinates": [ -97.1559566, 49.7670012 ] } },
{ "type": "Feature", "properties": { "name": "Red-River Co-op", "store_name": "St Vital", "street": "850 Dakota Street", "city": "Winnipeg", "province": "Manitoba", "postal_cod": null, "country": "Canada", "source": "https://www.redriverco-op.crs/sites/redriver/local/detail/food-stores", "lon": -97.10639591, "lat": 49.82821835, "audit_corrected": "n" }, "geometry": { "type": "Point", "coordinates": [ -97.10639591, 49.82821835 ] } },
{ "type": "Feature", "properties": { "name": "Sobeys", "store_name": "St. Annes Sobeys", "street": "1939 Abinojii Mikanah", "city": "Winnipeg", "province": "Manitoba", "postal_cod": "R2M5S1", "country": "Canada", "source": "https://www.sobeys.com/store-locator", "lon": -97.0947985, "lat": 49.838668, "audit_corrected": "n" }, "geometry": { "type": "Point", "coordinates": [ -97.0947985, 49.838668 ] } },
{ "type": "Feature", "properties": { "name": "Wal-mart", "store_name": "Sw Winnipeg Manitoba", "street": "1665 Kenaston Boulevard", "city": "Winnipeg", "province": "Manitoba", "postal_cod": "R3P 2M4", "country": "Canada", "source": "https://www.walmart.ca/en/store-finder?location=L5V%202N5", "lon": -97.1989243, "lat": 49.8237291, "audit_corrected": "n" }, "geometry": { "type": "Point", "coordinates": [ -97.1989243, 49.8237291 ] } },
{ "type": "Feature", "properties": { "name": "No Frills", "store_name": "TOM'S NOFRILLS WINNIPEG", "street": "6650 Roblin Boulevard", "city": "Winnipeg", "province": "Manitoba", "postal_cod": "R3R 2P9", "country": "Canada", "source": "https://www.nofrills.ca/en/store-locator", "lon": -97.3156732, "lat": 49.8622821, "audit_corrected": "n" }, "geometry": { "type": "Point", "coordinates": [ -97.3156732, 49.8622821 ] } },
{ "type": "Feature", "properties": { "name": "No Frills", "store_name": "TREVOR & HAYLEY'S NOFRILLS WINNIPEG", "street": "1795 Henderson Highway", "city": "Winnipeg", "province": "Manitoba", "postal_cod": "R2G 1P3", "country": "Canada", "source": "https://www.nofrills.ca/en/store-locator", "lon": -97.07564898, "lat": 49.95290225, "audit_corrected": "n" }, "geometry": { "type": "Point", "coordinates": [ -97.07564898, 49.95290225 ] } },
{ "type": "Feature", "properties": { "name": "Wal-mart", "store_name": "W. Winnipeg, Manitoba", "street": "3655 Portage Avenue", "city": "Winnipeg", "province": "Manitoba", "postal_cod": "R3K 2G6", "country": "Canada", "source": "https://www.walmart.ca/en/store-finder?location=L5V%202N6", "lon": -97.31312608, "lat": 49.88589295, "audit_corrected": "n" }, "geometry": { "type": "Point", "coordinates": [ -97.31312608, 49.88589295 ] } },
{ "type": "Feature", "properties": { "name": "Wal-mart", "store_name": "Winnipeg (grant Park)", "street": "1000 Taylor Avenue", "city": "Winnipeg", "province": "Manitoba", "postal_cod": "R3M 1T6", "country": "Canada", "source": "https://www.walmart.ca/en/store-finder?location=L5V%202N0", "lon": -97.1587049, "lat": 49.8531207, "audit_corrected": "n" }, "geometry": { "type": "Point", "coordinates": [ -97.1587049, 49.8531207 ] } },
{ "type": "Feature", "properties": { "name": "Wal-mart", "store_name": "Winnipeg (se)", "street": "35 Lakewood Boulevard", "city": "Winnipeg", "province": "Manitoba", "postal_cod": "R2J 2M8", "country": "Canada", "source": "https://www.walmart.ca/en/store-finder?location=L5V%202N2", "lon": -97.07622455000001, "lat": 49.8544883, "audit_corrected": "n" }, "geometry": { "type": "Point", "coordinates": [ -97.07622455, 49.8544883 ] } },
{ "type": "Feature", "properties": { "name": "Young's Market", "store_name": "Young's Market", "street": "1000 McPhillips Street", "city": "Winnipeg", "province": "Manitoba", "postal_cod": null, "country": "Canada", "source": "google maps", "lon": -97.16769034, "lat": 49.93104845, "audit_corrected": "n" }, "geometry": { "type": "Point", "coordinates": [ -97.16769034, 49.93104845 ] } },
{ "type": "Feature", "properties": { "name": "Young's Trading", "store_name": "Young's Trading", "street": "397 William Avenue", "city": "Winnipeg", "province": "Manitoba", "postal_cod": null, "country": "Canada", "source": "google maps", "lon": -97.1454685, "lat": 49.9011595, "audit_corrected": "n" }, "geometry": { "type": "Point", "coordinates": [ -97.1454685, 49.9011595 ] } }
]
}
